{ "index" : { "_index": "place", "_type" : "doc", "_id" : 1 } }
{ "ID": 1, "NAME": "신김치생삼겹살", "RN_ADDR": "서울 마포구 양화로 46", "LB_ADDR": "합정동 414-5", "DETAIL_ADDR": "", "TEL": "02-325-8690", "OFF_DAY": [],"SALES_FROM": "17:00","SALES_TO": "0:30","BREAK_FROM": "","BREAK_TO": "","PARKING": "FALSE","DESC": "약간 이른시간이나 저녁시간 피해가야함","TYPE": "M","SUB_TYPE": "K","TRY": "FALSE","TAG": [],"location": {"lat": 37.5493362,"lon": 126.9141832} }
{ "index" : { "_index": "place", "_type" : "doc", "_id" : 2 } }
{"ID": 2,"NAME": "더 밥","RN_ADDR": "서울 마포구 독막로15길 5","LB_ADDR": "상수동 310-25","DETAIL_ADDR": "","TEL": "070-8777-2811","OFF_DAY": ["MON"],"SALES_FROM": "11:00","SALES_TO": "22:30","BREAK_FROM": "15:00","BREAK_TO": "17:00","PARKING": "FALSE","DESC": "덮밥류","TYPE": "M","SUB_TYPE": "J","TRY": "FALSE","TAG": [],"location": {"lon": 126.9218086,"lat": 37.5481509} }
{ "index" : { "_index": "place", "_type" : "doc", "_id" : 3 } }
{"ID": 3,"NAME": "쯔루하시후게츠 홍대점","RN_ADDR": "서울 마포구 어울마당로 44-1","LB_ADDR": "서교동 408-27","DETAIL_ADDR": "2층","TEL": "02-323-5921","OFF_DAY": [],"SALES_FROM": "11:30","SALES_TO": "23:00","BREAK_FROM": "","BREAK_TO": "","PARKING": "FALSE","DESC": "오꼬노미야끼, 기다리기 힘들면 신촌점 ㄱ","TYPE": "M","SUB_TYPE": "J","TRY": "FALSE","TAG": [],"location": {"lon": 126.9209115,"lat": 37.5489167} }
{ "index" : { "_index": "place", "_type" : "doc", "_id" : 4 } }
{"ID": 4,"NAME": "라멘트럭","RN_ADDR": "서울 마포구 와우산로7길 6","LB_ADDR": "상수동 328-7","DETAIL_ADDR": "","TEL": "02-336-8455","OFF_DAY": [],"SALES_FROM": "11:00","SALES_TO": "0:00","BREAK_FROM": "","BREAK_TO": "","PARKING": "FALSE","DESC": "","TYPE": "M","SUB_TYPE": "J","TRY": "FALSE","TAG": [],"location": {"lon": 126.9226606,"lat": 37.5471396} }
{ "index" : { "_index": "place", "_type" : "doc", "_id" : 5 } }
{"ID": 5,"NAME": "마포소문난원조족발","RN_ADDR": "서울 마포구 만리재로 19","LB_ADDR": "공덕동 256-11","DETAIL_ADDR": "공덕시장 족발골목 내","TEL": "02-716-9731","OFF_DAY": ["every other weekend"],"SALES_FROM": "7:00","SALES_TO": "1:00","BREAK_FROM": "","BREAK_TO": "","PARKING": "FALSE","DESC": "맛있고 친절","TYPE": "M","SUB_TYPE": "K","TRY": "FALSE","TAG": [],"location": {"lon": 126.9531195,"lat": 37.5446023} }
{ "index" : { "_index": "place", "_type" : "doc", "_id" : 6 } }
{"ID": 6,"NAME": "키움초밥","RN_ADDR": "서울 마포구 잔다리로 77","LB_ADDR": "서교동 466-5","DETAIL_ADDR": "1층","TEL": "02-333-1511","OFF_DAY": [],"SALES_FROM": "11:30","SALES_TO": "1:00","BREAK_FROM": "","BREAK_TO": "","PARKING": "FALSE","DESC": "가성비, 불친절","TYPE": "M","SUB_TYPE": "J","TRY": "FALSE","TAG": [],"location": {"lon": 126.9160178,"lat": 37.5542519} }
{ "index" : { "_index": "place", "_type" : "doc", "_id" : 7 } }
{"ID": 7,"NAME": "똥집의정석","RN_ADDR": "서울 구로구 경인로 661","LB_ADDR": "신도림동 337","DETAIL_ADDR": "신도림푸르지오1차 167,168-1호","TEL": "02-861-3161","OFF_DAY": [],"SALES_FROM": "17:00","SALES_TO": "4:00","BREAK_FROM": "","BREAK_TO": "","PARKING": "FALSE","DESC": "","TYPE": "A","SUB_TYPE": "K","TRY": "FALSE","TAG": [],"location": {"lon": 126.8877258,"lat": 37.5093957} }
{ "index" : { "_index": "place", "_type" : "doc", "_id" : 8 } }
{"ID": 8,"NAME": "스냅","RN_ADDR": "서울 마포구 독막로6길 14","LB_ADDR": "합정동 361-1","DETAIL_ADDR": "","TEL": "02-322-1640","OFF_DAY": ["SUN"],"SALES_FROM": "10:00","SALES_TO": "22:00","BREAK_FROM": "","BREAK_TO": "","PARKING": "FALSE","DESC": "","TYPE": "D","SUB_TYPE": "A","TRY": "FALSE","TAG": [],"location": {"lon": 126.9172933,"lat": 37.5474401} }
{ "index" : { "_index": "place", "_type" : "doc", "_id" : 9 } }
{"ID": 9,"NAME": "소고산제일루 홍대1호점","RN_ADDR": "서울 마포구 잔다리로6길 40-6","LB_ADDR": "서교동 366-13","DETAIL_ADDR": "2층","TEL": "02-3141-3045","OFF_DAY": [],"SALES_FROM": "12:00","SALES_TO": "0:00","BREAK_FROM": "","BREAK_TO": "","PARKING": "FALSE","DESC": "수요미식회 81회, 홍대에 위치한 훠궈와 양꼬치 전문점","TYPE": "M","SUB_TYPE": "C","TRY": "FALSE","TAG": [],"location": {"lon": 126.9212574,"lat": 37.5520807} }
{ "index" : { "_index": "place", "_type" : "doc", "_id" : 10 } }
{"ID": 10,"NAME": "유키노하나","RN_ADDR": "서울 광진구 아차산로33길 21-5","LB_ADDR": "화양동 8-86","DETAIL_ADDR": "","TEL": "02-6085-9512","OFF_DAY": ["SUN"],"SALES_FROM": "18:00","SALES_TO": "3:00","BREAK_FROM": "","BREAK_TO": "","PARKING": "FALSE","DESC": "가성비, 연어","TYPE": "A","SUB_TYPE": "J","TRY": "FALSE","TAG": [],"location": {"lon": 127.0698394,"lat": 37.5413365} }
{ "index" : { "_index": "place", "_type" : "doc", "_id" : 11 } }
{"ID": 11,"NAME": "밥","RN_ADDR": "경남 통영시 광도면 죽림5로 34","LB_ADDR": "광도면 죽림리 1570-7","DETAIL_ADDR": "","TEL": "055-645-262","OFF_DAY": [],"SALES_FROM": "11:00","SALES_TO": "21:00","BREAK_FROM": "","BREAK_TO": "","PARKING": "TRUE","DESC": "그냥 밥집","TYPE": "M","SUB_TYPE": "K","TRY": "FALSE","TAG": [],"location": {"lon": 128.4195892,"lat": 34.8860336} }
{ "index" : { "_index": "place", "_type" : "doc", "_id" : 12 } }
{"ID": 12,"NAME": "당촌식당","RN_ADDR": "경남 통영시 판데1길 14","LB_ADDR": "당동 201-1","DETAIL_ADDR": "","TEL": "055-642-8109","OFF_DAY": ["MON"],"SALES_FROM": "12:00","SALES_TO": "21:00","BREAK_FROM": "","BREAK_TO": "","PARKING": "TRUE","DESC": "","TYPE": "M","SUB_TYPE": "FC","TRY": "FALSE","TAG": [],"location": {"lon": 128.4078288,"lat": 34.8355559} }
{ "index" : { "_index": "place", "_type" : "doc", "_id" : 13 } }
{"ID": 13,"NAME": "솔밭가든","RN_ADDR": "경남 고성군 마암면 옥천로 16-1","LB_ADDR": "마암면 화산리 131","DETAIL_ADDR": "","TEL": "055-672-2120","OFF_DAY": [],"SALES_FROM": "","SALES_TO": "","BREAK_FROM": "","BREAK_TO": "","PARKING": "TRUE","DESC": "오리고기","TYPE": "M","SUB_TYPE": "K","TRY": "FALSE","TAG": [],"location": {"lon": 128.3605204,"lat": 35.0504766} }
{ "index" : { "_index": "place", "_type" : "doc", "_id" : 14 } }
{"ID": 14,"NAME": "밤부베이커리","RN_ADDR": "서울 마포구 월드컵로5길 33-23","LB_ADDR": "합정동 386-11","DETAIL_ADDR": "","TEL": "02-3144-0446","OFF_DAY": [],"SALES_FROM": "11:30","SALES_TO": "23:00","BREAK_FROM": "","BREAK_TO": "","PARKING": "FALSE","DESC": "크루아상","TYPE": "D","SUB_TYPE": "A","TRY": "FALSE","TAG": [],"location": {"lon": 126.9109228,"lat": 37.5505802} }
{ "index" : { "_index": "place", "_type" : "doc", "_id" : 15 } }
{"ID": 15,"NAME": "테일러커피 2호점","RN_ADDR": "서울 마포구 와우산로27길 7","LB_ADDR": "서교동 338-1","DETAIL_ADDR": "","TEL": "02-334-0355","OFF_DAY": [],"SALES_FROM": "11:30","SALES_TO": "23:00","BREAK_FROM": "","BREAK_TO": "","PARKING": "FALSE","DESC": "","TYPE": "D","SUB_TYPE": "A","TRY": "FALSE","TAG": [],"location": {"lon": 126.9276536,"lat": 37.5537662} }
{ "index" : { "_index": "place", "_type" : "doc", "_id" : 16 } }
{"ID": 16,"NAME": "빈브라더스 합정점","RN_ADDR": "서울 마포구 토정로 35-1","LB_ADDR": "합정동 368-3","DETAIL_ADDR": "","TEL": "02-6012-2001","OFF_DAY": [],"SALES_FROM": "11:00","SALES_TO": "23:00","BREAK_FROM": "","BREAK_TO": "","PARKING": "TRUE","DESC": "","TYPE": "D","SUB_TYPE": "A","TRY": "FALSE","TAG": [],"location": {"lon": 126.914965,"lat": 37.5456779} }
{ "index" : { "_index": "place", "_type" : "doc", "_id" : 17 } }
{"ID": 17,"NAME": "안녕낯선사람","RN_ADDR": "서울 마포구 어울마당로5길 40","LB_ADDR": "서교동 398-9","DETAIL_ADDR": "","TEL": "02-333-5610","OFF_DAY": [],"SALES_FROM": "8:30","SALES_TO": "23:00","BREAK_FROM": "","BREAK_TO": "","PARKING": "FALSE","DESC": "라떼류","TYPE": "D","SUB_TYPE": "A","TRY": "FALSE","TAG": [],"location": {"lon": 126.9185665,"lat": 37.5497846} }
{ "index" : { "_index": "place", "_type" : "doc", "_id" : 18 } }
{"ID": 18,"NAME": "비포그레이","RN_ADDR": "서울 마포구 토정로3길 16","LB_ADDR": "합정동 367-9","DETAIL_ADDR": "","TEL": "02-333-5694","OFF_DAY": [],"SALES_FROM": "10:00","SALES_TO": "22:00","BREAK_FROM": "","BREAK_TO": "","PARKING": "FALSE","DESC": "","TYPE": "D","SUB_TYPE": "A","TRY": "FALSE","TAG": [],"location": {"lon": 126.9144224,"lat": 37.546264} }
{ "index" : { "_index": "place", "_type" : "doc", "_id" : 19 } }
{"ID": 19,"NAME": "파르투내","RN_ADDR": "서울 중구 마른내로 154","LB_ADDR": "광희동1가 250-1","DETAIL_ADDR": "","TEL": "02-2278-7770","OFF_DAY": ["MON(1,3)"],"SALES_FROM": "10:00","SALES_TO": "23:00","BREAK_FROM": "","BREAK_TO": "","PARKING": "FALSE","DESC": "우즈벡 음식 전문점","TYPE": "M","SUB_TYPE": "R","TRY": "FALSE","TAG": [],"location": {"lon": 127.0049665,"lat": 37.5645518} }
{ "index" : { "_index": "place", "_type" : "doc", "_id" : 20 } }
{"ID": 20,"NAME": "바르셀로나","RN_ADDR": "서울 마포구 월드컵로19길 1","LB_ADDR": "망원동 57-23","DETAIL_ADDR": "지하1층","TEL": "02-322-5764","OFF_DAY": ["SUN"],"SALES_FROM": "18:00","SALES_TO": "1:00","BREAK_FROM": "","BREAK_TO": "","PARKING": "FALSE","DESC": "봄맞이 냉이 파스타(미깡)","TYPE": "A","SUB_TYPE": "S","TRY": "FALSE","TAG": [],"location": {"lon": 126.9080676,"lat": 37.5562348} }
{ "index" : { "_index": "place", "_type" : "doc", "_id" : 21 } }
{"ID": 21,"NAME": "광안리","RN_ADDR": "서울 중구 충무로2길 32","LB_ADDR": "충무로4가 134-1","DETAIL_ADDR": "","TEL": "011-874-3590","OFF_DAY": [],"SALES_FROM": "0:00","SALES_TO": "0:00","BREAK_FROM": "","BREAK_TO": "","PARKING": "FALSE","DESC": "횟집, 연어 갑, 예약만 받음","TYPE": "M","SUB_TYPE": "K","TRY": "FALSE","TAG": [],"location": {"lon": 126.9948302,"lat": 37.5622719} }
{ "index" : { "_index": "place", "_type" : "doc", "_id" : 22 } }
{"ID": 22,"NAME": "중화방","RN_ADDR": "인천 중구 신포로27번길 45","LB_ADDR": "중앙동3가 2-18","DETAIL_ADDR": "","TEL": "","OFF_DAY": ["WED(2,4)"],"SALES_FROM": "","SALES_TO": "","BREAK_FROM": "","BREAK_TO": "","PARKING": "TRUE","DESC": "진짜 고수는 차이나타운 근처에 있지, 가격도 반값","TYPE": "M","SUB_TYPE": "C","TRY": "FALSE","TAG": [],"location": {"lon": 126.6228805,"lat": 37.4724282} }
{ "index" : { "_index": "place", "_type" : "doc", "_id" : 23 } }
{"ID": 23,"NAME": "두만강샤브샤브 봉천점","RN_ADDR": "서울 관악구 봉천로 537","LB_ADDR": "봉천동 1663-7","DETAIL_ADDR": "1층","TEL": "02-885-7966","OFF_DAY": [],"SALES_FROM": "11:30","SALES_TO": "22:00","BREAK_FROM": "","BREAK_TO": "","PARKING": "FALSE","DESC": "그냥","TYPE": "M","SUB_TYPE": "C","TRY": "FALSE","TAG": [],"location": {"lon": 126.9576725,"lat": 37.4787665} }
{ "index" : { "_index": "place", "_type" : "doc", "_id" : 24 } }
{"ID": 24,"NAME": "케르반 베이커리","RN_ADDR": "서울 용산구 이태원로 204","LB_ADDR": "이태원동 126-2","DETAIL_ADDR": "","TEL": "02-790-5585","OFF_DAY": [],"SALES_FROM": "9:00","SALES_TO": "0:00","BREAK_FROM": "","BREAK_TO": "","PARKING": "FALSE","DESC": "먹고갈 수 있다, 장난안치는 돈두르마를 판다, 중동식 쿠키가 더 맛","TYPE": "D","SUB_TYPE": "T","TRY": "FALSE","TAG": [],"location": {"lon": 126.9965047,"lat": 37.5344666} }
{ "index" : { "_index": "place", "_type" : "doc", "_id" : 25 } }
{"ID": 25,"NAME": "살람베이커리","RN_ADDR": "서울 용산구 보광로60길 22","LB_ADDR": "이태원동 132-1","DETAIL_ADDR": "","TEL": "070-4025-7044","OFF_DAY": [],"SALES_FROM": "10:00","SALES_TO": "22:30","BREAK_FROM": "","BREAK_TO": "","PARKING": "FALSE","DESC": "먹고 갈 수 없지만 바클라바가 존맛, 터키식 빵 에크맥이 존맛","TYPE": "D","SUB_TYPE": "T","TRY": "FALSE","TAG": [],"location": {"lon": 126.9954229,"lat": 37.5338852} }
{ "index" : { "_index": "place", "_type" : "doc", "_id" : 26 } }
{"ID": 26,"NAME": "진주도가","RN_ADDR": "전북 전주시 완산구전라감영3길 13-5","LB_ADDR": "중앙동1가 61-3","DETAIL_ADDR": "","TEL": "063-287-3392","OFF_DAY": [],"SALES_FROM": "20:00","SALES_TO": "2:00","BREAK_FROM": "","BREAK_TO": "","PARKING": "FALSE","DESC": "모스코뮬 꼭 드세요! 술이깨는 술맛","TYPE": "A","SUB_TYPE": "K","TRY": "FALSE","TAG": [],"location": {"lon": 127.1430208,"lat": 35.8161663} }
{ "index" : { "_index": "place", "_type" : "doc", "_id" : 27 } }
{"ID": 27,"NAME": "사루카메","RN_ADDR": "서울 마포구연남로 15","LB_ADDR": "연남동 566-67","DETAIL_ADDR": "","TEL": "070-8156-5720","OFF_DAY": [],"SALES_FROM": "11:30","SALES_TO": "22:00","BREAK_FROM": "15:00","BREAK_TO": "18:00","PARKING": "FALSE","DESC": "찬란히 빛나는 사루라멘  12,000원","TYPE": "M","SUB_TYPE": "J","TRY": "FALSE","TAG": [],"location": {"lon": 126.922653,"lat": 37.5610317} }
{ "index" : { "_index": "place", "_type" : "doc", "_id" : 28 } }
{"ID": 28,"NAME": "가마마루이","RN_ADDR": "서울 서대문구 성산로22길 4","LB_ADDR": "창천동 91-6","DETAIL_ADDR": "","TEL": "02-3142-3929","OFF_DAY": ["SUN"],"SALES_FROM": "11:00","SALES_TO": "21:00","BREAK_FROM": "15:00","BREAK_TO": "17:00","PARKING": "FALSE","DESC": "공깃밥과 마파두부는 무한리필, 온천달걀 매력적","TYPE": "M","SUB_TYPE": "J","TRY": "FALSE","TAG": [],"location": {"lon": 126.9333177,"lat": 37.5603743} }
{ "index" : { "_index": "place", "_type" : "doc", "_id" : 29 } }
{"ID": 29,"NAME": "황홀경","RN_ADDR": "서울 관악구 관악로14길 37","LB_ADDR": "봉천동 1603-20","DETAIL_ADDR": "지하1층","TEL": "02-6449-7362","OFF_DAY": [],"SALES_FROM": "12:00","SALES_TO": "23:00","BREAK_FROM": "","BREAK_TO": "","PARKING": "FALSE","DESC": "독일식 팬케잌, 더치베이비 후르츠 존맛, 분위기 개깡패","TYPE": "D","SUB_TYPE": "G","TRY": "FALSE","TAG": [],"location": {"lon": 126.9545918,"lat": 37.478906} }
{ "index" : { "_index": "place", "_type" : "doc", "_id" : 30 } }
{"ID": 30,"NAME": "에베레스트","RN_ADDR": "서울 영등포구 경인로 838-1","LB_ADDR": "영등포동 423-103","DETAIL_ADDR": "","TEL": "02-3667-8848","OFF_DAY": [],"SALES_FROM": "11:00","SALES_TO": "23:00","BREAK_FROM": "","BREAK_TO": "","PARKING": "FALSE","DESC": "인도식 커리","TYPE": "M","SUB_TYPE": "I","TRY": "FALSE","TAG": [],"location": {"lon": 126.9060679,"lat": 37.5158698} }
{ "index" : { "_index": "place", "_type" : "doc", "_id" : 31 } }
{"ID": 31,"NAME": "옥반상","RN_ADDR": "서울 종로구사직로 101","LB_ADDR": "필운동 214","DETAIL_ADDR": "필운빌딩 1층","TEL": "02-739-0101","OFF_DAY": ["SUN"],"SALES_FROM": "11:00","SALES_TO": "22:00","BREAK_FROM": "15:00","BREAK_TO": "17:00","PARKING": "FALSE","DESC": "서울쪽 곰탕 중 탑","TYPE": "M","SUB_TYPE": "K","TRY": "FALSE","TAG": [],"location": {"lon": 126.969987,"lat": 37.5762852} }
{ "index" : { "_index": "place", "_type" : "doc", "_id" : 32 } }
{"ID": 32,"NAME": "(간판없는)순대국집","RN_ADDR": "서울 동대문구 하정로4길 1","LB_ADDR": "신설동 91-300","DETAIL_ADDR": "","TEL": "02-921-6402","OFF_DAY": [],"SALES_FROM": "","SALES_TO": "","BREAK_FROM": "","BREAK_TO": "","PARKING": "FALSE","DESC": "사실상 돼지국밥","TYPE": "M","SUB_TYPE": "K","TRY": "FALSE","TAG": [],"location": {"lon": 127.0255106,"lat": 37.5726757} }
{ "index" : { "_index": "place", "_type" : "doc", "_id" : 33 } }
{"ID": 33,"NAME": "오지 편한식당","RN_ADDR": "서울 관악구 관악로12길 47","LB_ADDR": "봉천동 1610-24","DETAIL_ADDR": "대명빌딩 1층","TEL": "010-5048-9914","OFF_DAY": ["SUN", "MON"],"SALES_FROM": "19:00","SALES_TO": "1:00","BREAK_FROM": "","BREAK_TO": "","PARKING": "FALSE","DESC": "한국 쏘주 안팔지만 맛있음, 3인이상은 문의해야 가능","TYPE": "A","SUB_TYPE": "FC","TRY": "FALSE","TAG": [],"location": {"lon": 126.9550708,"lat": 37.4777983} }
{ "index" : { "_index": "place", "_type" : "doc", "_id" : 34 } }
{"ID": 34,"NAME": "키친31","RN_ADDR": "서울 서대문구 연세로4길 61","LB_ADDR": "창천동 5-32","DETAIL_ADDR": "1층","TEL": "02-312-6709","OFF_DAY": ["SUN"],"SALES_FROM": "18:00","SALES_TO": "1:00","BREAK_FROM": "","BREAK_TO": "","PARKING": "FALSE","DESC": "테이블 4개밖이지만 남들에게 알리기 싫은 술집","TYPE": "A","SUB_TYPE": "J","TRY": "FALSE","TAG": [],"location": {"lon": 126.9395137,"lat": 37.5585209} }
{ "index" : { "_index": "place", "_type" : "doc", "_id" : 35 } }
{"ID": 35,"NAME": "카쿠시타","RN_ADDR": "서울 마포구 동교로38길 33-15","LB_ADDR": "연남동 390-30","DETAIL_ADDR": "1층","TEL": "070-4187-8787","OFF_DAY": [],"SALES_FROM": "11:30","SALES_TO": "1:00","BREAK_FROM": "14:30","BREAK_TO": "17:00","PARKING": "FALSE","DESC": "죽기 전에 후냐후냐 오믈렛을 먹어봐야 함","TYPE": "A","SUB_TYPE": "J","TRY": "FALSE","TAG": [],"location": {"lon": 126.9261064,"lat": 37.5618128} }
{ "index" : { "_index": "place", "_type" : "doc", "_id" : 36 } }
{"ID": 36,"NAME": "아뻬 서울","RN_ADDR": "서울 종로구창경궁로35나길 1","LB_ADDR": "혜화동 71-10","DETAIL_ADDR": "","TEL": "070-7716-1910","OFF_DAY": ["TUE"],"SALES_FROM": "11:00","SALES_TO": "22:00","BREAK_FROM": "","BREAK_TO": "","PARKING": "FALSE","DESC": "직접 양봉한 꿀로 디저트를 만들어 파는 곳","TYPE": "D","SUB_TYPE": "A","TRY": "FALSE","TAG": [],"location": {"lon": 127.0012003,"lat": 37.5872838} }
{ "index" : { "_index": "place", "_type" : "doc", "_id" : 37 } }
{"ID": 37,"NAME": "천지양꼬치","RN_ADDR": "서울 마포구 포은로 74","LB_ADDR": "망원동 401-34","DETAIL_ADDR": "","TEL": "02-322-1020","OFF_DAY": ["MON(2,4)"],"SALES_FROM": "","SALES_TO": "","BREAK_FROM": "","BREAK_TO": "","PARKING": "FALSE","DESC": "양꼬치의 또다른 신세계, 양갈비꼬치","TYPE": "M","SUB_TYPE": "C","TRY": "FALSE","TAG": [],"location": {"lon": 126.9058377,"lat": 37.5537805} }
{ "index" : { "_index": "place", "_type" : "doc", "_id" : 38 } }
{"ID": 38,"NAME": "명점","RN_ADDR": "경기 구리시 경춘로242번길 27","LB_ADDR": "수택동 527-19","DETAIL_ADDR": "","TEL": "031-567-5888","OFF_DAY": [],"SALES_FROM": "17:00","SALES_TO": "22:00","BREAK_FROM": "","BREAK_TO": "","PARKING": "TRUE","DESC": "다 먹어 보고 싶은 곳","TYPE": "M","SUB_TYPE": "C","TRY": "FALSE","TAG": [],"location": {"lon": 127.1435262,"lat": 37.6006079} }
{ "index" : { "_index": "place", "_type" : "doc", "_id" : 39 } }
{"ID": 39,"NAME": "호반","RN_ADDR": "서울 종로구 삼일대로26길 20","LB_ADDR": "낙원동 85-7","DETAIL_ADDR": "","TEL": "02-745-6618","OFF_DAY": ["SUN(1,3,5)"],"SALES_FROM": "11:30","SALES_TO": "22:00","BREAK_FROM": "","BREAK_TO": "","PARKING": "FALSE","DESC": "익선동, 순대","TYPE": "M","SUB_TYPE": "K","TRY": "FALSE","TAG": [],"location": {"lon": 126.9891286,"lat": 37.5732637} }
{ "index" : { "_index": "place", "_type" : "doc", "_id" : 40 } }
{"ID": 40,"NAME": "금붕어식당","RN_ADDR": "서울 마포구 동교로8길 39","LB_ADDR": "합정동 448-18","DETAIL_ADDR": "","TEL": "","OFF_DAY": ["SUN", "MON"],"SALES_FROM": "13:00","SALES_TO": "21:30","BREAK_FROM": "16:00","BREAK_TO": "18:00","PARKING": "FALSE","DESC": "태국음식점","TYPE": "M","SUB_TYPE": "TH","TRY": "FALSE","TAG": [],"location": {"lon": 126.9056101,"lat": 37.5503067} }
{ "index" : { "_index": "place", "_type" : "doc", "_id" : 41 } }
{"ID": 41,"NAME": "천지샤브샤브 2호점","RN_ADDR": "서울 광진구 아차산로29길 22","LB_ADDR": "화양동 9-25","DETAIL_ADDR": "2층","TEL": "02-466-6334","OFF_DAY": [],"SALES_FROM": "11:00","SALES_TO": "0:00","BREAK_FROM": "","BREAK_TO": "","PARKING": "FALSE","DESC": "훠궈 무한리필, 3가지 탕을 한번에","TYPE": "M","SUB_TYPE": "C","TRY": "FALSE","TAG": [],"location": {"lon": 127.068612,"lat": 37.541762} }
{ "index" : { "_index": "place", "_type" : "doc", "_id" : 42 } }
{"ID": 42,"NAME": "모또","RN_ADDR": "서울 용산구 한남대로20길 47","LB_ADDR": "한남동 31-13","DETAIL_ADDR": "","TEL": "02-3785-0997","OFF_DAY": ["MON"],"SALES_FROM": "11:30","SALES_TO": "20:00","BREAK_FROM": "","BREAK_TO": "","PARKING": "FALSE","DESC": "대표메뉴: 타마고산도(7,500원), 당고 세트(6,800원)","TYPE": "D","SUB_TYPE": "J","TRY": "FALSE","TAG": [],"location": {"lon": 127.009466,"lat": 37.5348679} }
{ "index" : { "_index": "place", "_type" : "doc", "_id" : 43 } }
{"ID": 43,"NAME": "쿠모식당","RN_ADDR": "서울 관악구 관악로14길 31","LB_ADDR": "봉천동 1603-15","DETAIL_ADDR": "1층","TEL": "070-8623-6996","OFF_DAY": [],"SALES_FROM": "12:00","SALES_TO": "21:30","BREAK_FROM": "14:00","BREAK_TO": "17:00","PARKING": "FALSE","DESC": "카츠산도 맛집","TYPE": "M","SUB_TYPE": "J","TRY": "FALSE","TAG": [],"location": {"lon": 126.9542856,"lat": 37.4789727} }
{ "index" : { "_index": "place", "_type" : "doc", "_id" : 44 } }
{"ID": 44,"NAME": "명봉샤브샤브양꼬치","RN_ADDR": "서울 광진구 뚝섬로31길 59","LB_ADDR": "자양4동 4-1","DETAIL_ADDR": "광진빌딩 1층","TEL": "02-498-8808","OFF_DAY": [],"SALES_FROM": "12:00","SALES_TO": "2:00","BREAK_FROM": "","BREAK_TO": "","PARKING": "FALSE","DESC": "수요미식가, 가지 볶음","TYPE": "M","SUB_TYPE": "C","TRY": "FALSE","TAG": [],"location": {"lon": 127.0686501,"lat": 37.5380635} }
{ "index" : { "_index": "place", "_type" : "doc", "_id" : 45 } }
{"ID": 45,"NAME": "순흥골 신길점","RN_ADDR": "서울 영등포구 대방천로 175","LB_ADDR": "신길동 3741-53","DETAIL_ADDR": "","TEL": "02-848-1888","OFF_DAY": [],"SALES_FROM": "11:30","SALES_TO": "22:00","BREAK_FROM": "","BREAK_TO": "","PARKING": "TRUE","DESC": "고독한 미식가 갈비집보다 뛰어남","TYPE": "M","SUB_TYPE": "K","TRY": "FALSE","TAG": [],"location": {"lon": 126.9105181,"lat": 37.4992876} }
{ "index" : { "_index": "place", "_type" : "doc", "_id" : 46 } }
{"ID": 46,"NAME": "청어람","RN_ADDR": "서울 마포구 망원로 97","LB_ADDR": "망원동 482-3","DETAIL_ADDR": "창은빌딩 1층","TEL": "02-332-1411","OFF_DAY": ["SUN"],"SALES_FROM": "11:30","SALES_TO": "22:00","BREAK_FROM": "14:00","BREAK_TO": "17:00","PARKING": "FALSE","DESC": "곱창전골 존맛탱","TYPE": "M","SUB_TYPE": "K","TRY": "FALSE","TAG": [],"location": {"lon": 126.9074864,"lat": 37.5580595} }
{ "index" : { "_index": "place", "_type" : "doc", "_id" : 47 } }
{"ID": 47,"NAME": "빙하의별","RN_ADDR": "서울 마포구망원로 46","LB_ADDR": "망원동 416-22","DETAIL_ADDR": "","TEL": "02-336-0604","OFF_DAY": ["SUN", "MON(2,4)"],"SALES_FROM": "12:00","SALES_TO": "22:00","BREAK_FROM": "","BREAK_TO": "","PARKING": "FALSE","DESC": "프랑스 가정식, 아이스크림 장인이하는 아이스크림을 판다","TYPE": "M","SUB_TYPE": "F","TRY": "FALSE","TAG": [],"location": {"lon": 126.901976,"lat": 37.5565694} }
{ "index" : { "_index": "place", "_type" : "doc", "_id" : 48 } }
{"ID": 48,"NAME": "니코리","RN_ADDR": "서울 양천구 중앙로36길 40","LB_ADDR": "신정동 1048-18","DETAIL_ADDR": "1층","TEL": "02-2061-5288","OFF_DAY": [],"SALES_FROM": "11:30","SALES_TO": "22:00","BREAK_FROM": "15:00","BREAK_TO": "18:00","PARKING": "FALSE","DESC": "오열주의","TYPE": "M","SUB_TYPE": "J","TRY": "FALSE","TAG": [],"location": {"lon": 126.8583925,"lat": 37.5197156} }
{ "index" : { "_index": "place", "_type" : "doc", "_id" : 49 } }
{"ID": 49,"NAME": "참치한마리","RN_ADDR": "서울 송파구백제고분로48길 29","LB_ADDR": "방이동 142-16","DETAIL_ADDR": "지하1층","TEL": "02-415-4592","OFF_DAY": [],"SALES_FROM": "16:00","SALES_TO": "1:00","BREAK_FROM": "","BREAK_TO": "","PARKING": "FALSE","DESC": "참치 양이 푸짐","TYPE": "M","SUB_TYPE": "K","TRY": "TRUE","TAG": [],"location": {"lon": 127.1162619,"lat": 37.5107951} }
{ "index" : { "_index": "place", "_type" : "doc", "_id" : 50 } }
{"ID": 50,"NAME": "몰리스","RN_ADDR": "서울 서대문구 연세로5다길 22-7","LB_ADDR": "창천동 62-21","DETAIL_ADDR": "","TEL": "02-6015-2442","OFF_DAY": [],"SALES_FROM": "12:00","SALES_TO": "23:00","BREAK_FROM": "","BREAK_TO": "","PARKING": "FALSE","DESC": "20년 경력의 파티쉐, 메뉴가 다 맛있다.","TYPE": "D","SUB_TYPE": "F","TRY": "FALSE","TAG": [],"location": {"lon": 126.9343856,"lat": 37.5569195} }
{ "index" : { "_index": "place", "_type" : "doc", "_id" : 51 } }
{"ID": 51,"NAME": "하품","RN_ADDR": "서울 노원구화랑로51길 38","LB_ADDR": "공릉동 113","DETAIL_ADDR": "밀레니엄타워","TEL": "02-978-2988","OFF_DAY": [],"SALES_FROM": "","SALES_TO": "","BREAK_FROM": "","BREAK_TO": "","PARKING": "FALSE","DESC": "밀크티빙수, 밀크티를 좋아한다면 꼭","TYPE": "D","SUB_TYPE": "A","TRY": "FALSE","TAG": [],"location": {"lon": 127.0890701,"lat": 37.6249129}
{ "index" : { "_index": "place", "_type" : "doc", "_id" : 52 } }
{"ID": 52,"NAME": "파이홀","RN_ADDR": "서울 서대문구 연세로5나길 20","LB_ADDR": "창천동 57-61","DETAIL_ADDR": "","TEL": "02-334-1181","OFF_DAY": [],"SALES_FROM": "11:00","SALES_TO": "23:00","BREAK_FROM": "","BREAK_TO": "","PARKING": "FALSE","DESC": "모든 파이 다 맛있음, 스모어를 데워서 한입 먹으면 에펠탑이 보이는 착시현상","TYPE": "D","SUB_TYPE": "A","TRY": "FALSE","TAG": [],"location": {"lon": 126.9350431,"lat": 37.5570056} }
{ "index" : { "_index": "place", "_type" : "doc", "_id" : 53 } }
{"ID": 53,"NAME": "이치에","RN_ADDR": "서울 강남구 선릉로155길 23-3","LB_ADDR": "신사동 656-7","DETAIL_ADDR": "","TEL": "070-4273-4087","OFF_DAY": "SUN","SALES_FROM": "18:00","SALES_TO": "0:00","BREAK_FROM": "","BREAK_TO": "","PARKING": "FALSE","DESC": "우니 이꾸라동에 반드시 시켜야 하는 고등어 볶음밥","TYPE": "M","SUB_TYPE": "J","TRY": "FALSE","TAG": [],"location": {"lon": 127.0376706,"lat": 37.5253356} }
{ "index" : { "_index": "place", "_type" : "doc", "_id" : 54 } }
{"ID": 54,"NAME": "도쿄팡야 가로수길","RN_ADDR": "서울 강남구 논현로151길 52","LB_ADDR": "신사동 543-8","DETAIL_ADDR": "","TEL": "02-547-7790","OFF_DAY": [],"SALES_FROM": "10:00","SALES_TO": "22:00","BREAK_FROM": "","BREAK_TO": "","PARKING": "FALSE","DESC": "","TYPE": "D","SUB_TYPE": "J","TRY": "FALSE","TAG": [],"location": {"lon": 127.0238961,"lat": 37.5196406} }
{ "index" : { "_index": "place", "_type" : "doc", "_id" : 55 } }
{"ID": 55,"NAME": "레빠쥬","RN_ADDR": "서울 강남구 도산대로1길 62","LB_ADDR": "신사동 506","DETAIL_ADDR": "강남출판문화센터 1층","TEL": "02-540-3240","OFF_DAY": [],"SALES_FROM": "11:30","SALES_TO": "23:00","BREAK_FROM": "","BREAK_TO": "","PARKING": "FALSE","DESC": "블루베리 마스카포네!! 봉골레 피자","TYPE": "M","SUB_TYPE": "A","TRY": "FALSE","TAG": [],"location": {"lon": 127.0194099,"lat": 37.5207424} }
{ "index" : { "_index": "place", "_type" : "doc", "_id" : 56 } }
{"ID": 56,"NAME": "광주횟집","RN_ADDR": "서울 강동구 구천면로 221","LB_ADDR": "천호동 402-","DETAIL_ADDR": "","TEL": "02-476-5007","OFF_DAY": [],"SALES_FROM": "","SALES_TO": "","BREAK_FROM": "","BREAK_TO": "","PARKING": "TRUE","DESC": "이렇게 두꺼운 회는 처음봄","TYPE": "M","SUB_TYPE": "K","TRY": "TRUE","TAG": [],"location": {"lon": 127.1290575,"lat": 37.5409276} }
{ "index" : { "_index": "place", "_type" : "doc", "_id" : 57 } }
{"ID": 57,"NAME": "여진곱","RN_ADDR": "서울 종로구 삼일대로 430","LB_ADDR": "낙원동 66","DETAIL_ADDR": "","TEL": "02-762-5157","OFF_DAY": [],"SALES_FROM": "10:00","SALES_TO": "23:00","BREAK_FROM": "15:00","BREAK_TO": "16:00","PARKING": "FALSE","DESC": "여기가 진짜 곱창이라는 가게 이름값을 합니다. 알곱창 드세요. 제가 여태껏 먹었던 곱창은 곱창 껍데기 같은 거였나.... 곱 꽉 차 있고 세상 고소하고 진짜.... 예약하지 않으면 수량이 없는 날도 있으니 주의! 한우곱창부대전골도 안주로 최고예요.","TYPE": "M","SUB_TYPE": "K","TRY": "FALSE","TAG": ["#알곱창", "#세상고소", "#한우곱창부대전골", "#가볼까"],"location": {"lon": 126.9883214,"lat": 37.5730991} }
{ "index" : { "_index": "place", "_type" : "doc", "_id" : 58 } }
{"ID": 58,"NAME": "메종조","RN_ADDR": "서울 서초구 남부순환로315길 84","LB_ADDR": "서초동 1479-1","DETAIL_ADDR": "","TEL": "02-584-3373","OFF_DAY": ["MON", "TUE"],"SALES_FROM": "12:00","SALES_TO": "20:00","BREAK_FROM": "","BREAK_TO": "","PARKING": "FALSE","DESC": "예당에서 떨어져 있긴 하지만 슬렁슬렁 걸어서 갈수 있는 위치. 샤퀴테리 전문점. 여기 테린도 그렇고 햄도 그렇고 쫀쫀하니 맛있다. 테이블이 하나 있고 식사도 가능한데 궁금한 메뉴들이 한두개가 아니라 다음번 예당갈 때 먹어볼 예정.메뉴에 파슬리 마늘 버터로 볶은 오소리 감투, 버터에 구운 닭 염통과 대파, 팬에 구운 돼지귀 테린과 아이올리 소스+야채볶음, 버터에 구운 부당바스크와 감자랑 사과구이, \"바스크식 천엽스튜\"(이게 제일 궁금함)","TYPE": "M","SUB_TYPE": "F","TRY": "FALSE","TAG": ["#예당", "#예당맛집", "#샤퀴테리전문점", "#테이블하나"],"location": {"lon": 127.0074128,"lat": 37.4822188} }
{ "index" : { "_index": "place", "_type" : "doc", "_id" : 59 } }
{"ID": 59,"NAME": "얼땅쟈","RN_ADDR": "서울 광진구 동일로18길 68","LB_ADDR": "자양동 11-3","DETAIL_ADDR": "","TEL": "02-467-2886","OFF_DAY": [],"SALES_FROM": "12:00","SALES_TO": "3:00","BREAK_FROM": "","BREAK_TO": "","PARKING": "FALSE","DESC": "촨촨샹 전문점. 육수의 진하기에 놀라고 재료들 관리된 것에 한번 더 놀라고 인당 3만원~4만원 선으로 든든하게 먹을 수 있다. 하이디라오보다 나을 정도로 서울에서 먹어본 것중 제일 맛있는 훠궈!","TYPE": "M","SUB_TYPE": "C","TRY": "FALSE","TAG": ["#촨촨샹", "#훠궈"],"location": {"lon": 127.0664091,"lat": 37.5387396} }
{ "index" : { "_index": "place", "_type" : "doc", "_id" : 60 } }
{"ID": 60,"NAME": "원깐돌이","RN_ADDR": "경남 진주시 촉석로 165","LB_ADDR": "중안동 101","DETAIL_ADDR": "","TEL": "055-742-3937","OFF_DAY": ["SUN"],"SALES_FROM": "10:00","SALES_TO": "17:00","BREAK_FROM": "","BREAK_TO": "","PARKING": "FALSE","DESC": "알쓸신잡 나왔던 곳, 이모님 솜씨가 좋아서 뭘 먹어도 맛있을 듯","TYPE": "M","SUB_TYPE": "K","TRY": "FALSE","TAG": ["#진주맛집", "#진주", "#알쓸신잡"],"location": {"lon": 128.0802353,"lat": 35.1946696} }
{ "index" : { "_index": "place", "_type" : "doc", "_id" : 61 } }
{"ID": 61,"NAME": "목민정","RN_ADDR": "경남 창원시 의창구 천주로12번길 25","LB_ADDR": "의창구 중동 707","DETAIL_ADDR": "","TEL": "055-255-7111","OFF_DAY": [],"SALES_FROM": "11:00","SALES_TO": "22:00","BREAK_FROM": "16:00","BREAK_TO": "17:00","PARKING": "TRUE","DESC": "반찬은 대략 15가지 정도 되는데 모두다 맛있고, 메인메뉴는 청국장 & 생선구이 & 돌솥밥 까지 나오는데 1인 12000원","TYPE": "M","SUB_TYPE": "K","TRY": "FALSE","TAG": ["#창원", "#한정식"],"location": {"lon": 128.621216,"lat": 35.262901} }
{ "index" : { "_index": "place", "_type" : "doc", "_id" : 62 } }
{"ID": 62,"NAME": "화인찜식당","RN_ADDR": "경남 창원시 마산합포구 밤밭고개로 371","LB_ADDR": "마산합포구 월영동 593-2","DETAIL_ADDR": "","TEL": "055-247-7232","OFF_DAY": [],"SALES_FROM": "10:00","SALES_TO": "22:00","BREAK_FROM": "","BREAK_TO": "","PARKING": "FALSE","DESC": "울아버지 맛집, 잘먹고 딴소리 하시는 아버지가 맛있다고 한 몇 안되는 집,","TYPE": "M","SUB_TYPE": "K","TRY": "FALSE","TAG": ["#마산", "#댓거리", "#해물찜"],"location": {"lon": 128.5553647,"lat": 35.1749536} }
{ "index" : { "_index": "place", "_type" : "doc", "_id" : 63 } }
{"ID": 63,"NAME": "수복해물찜전문","RN_ADDR": "경남 창원시 성산구 반송로 72-1","LB_ADDR": "성산구 반지동 66-8","DETAIL_ADDR": "","TEL": "055-273-3623","OFF_DAY": [],"SALES_FROM": "11:00","SALES_TO": "22:00","BREAK_FROM": "","BREAK_TO": "","PARKING": "TRUE","DESC": "특소자(20000원)로 세명이서 배부르게 먹는데 맛도 있고 해물도 듬뿍","TYPE": "M","SUB_TYPE": "K","TRY": "FALSE","TAG": ["#창원", "#인생맛집", "#해물찜"],"location": {"lon": 128.6644619,"lat": 35.2396169} }
{ "index" : { "_index": "place", "_type" : "doc", "_id" : 64 } }
{"ID": 64,"NAME": "산청돼지국밥전문","RN_ADDR": "경남 진주시 창렬로 71","LB_ADDR": "상봉동 1108-16","DETAIL_ADDR": "","TEL": "055-742-2938","OFF_DAY": ["WED(1,3)"],"SALES_FROM": "6:30","SALES_TO": "22:00","BREAK_FROM": "","BREAK_TO": "","PARKING": "TRUE","DESC": "국밥에 고기도 퍽퍽한 살 안 쓰고 비계붙은 살 써서 부드럽고 고소함, 육수도 사골스타일 아니고 시장 국밥 스타일이라서 얼큰하다","TYPE": "M","SUB_TYPE": "K","TRY": "FALSE","TAG": ["#진주", "#돼지국밥", "#얼큰"],"location": {"lon": 128.068995,"lat": 35.1948586} }
{ "index" : { "_index": "place", "_type" : "doc", "_id" : 65 } }
{"ID": 65,"NAME": "제주돗","RN_ADDR": "제주특별자치도 제주시 한경면 조수2길 34","LB_ADDR": "한경면 조수리 254-1","DETAIL_ADDR": "","TEL": "064-772-0505","OFF_DAY": ["TUE"],"SALES_FROM": "16:00","SALES_TO": "22:00","BREAK_FROM": "","BREAK_TO": "","PARKING": "TRUE","DESC": "이런데 식당이 있을까 하는곳에 식당이 있음, 여름에 가면 넓은 평원에서 고기를 구울 수 있다.","TYPE": "M","SUB_TYPE": "K","TRY": "FALSE","TAG": ["#제주도", "#제주맛집", "#흑돼지"],"location": {"lon": 126.23085700158272,"lat": 33.33314561082263} }
